City_ID,City,Lat,Lng,Max Temp,Humidity,Cloudiness,Wind Speed,Country,Date
0,kelibia,36.8476,11.0939,26.56,65,0,3.84,TN,1721506018
1,adamstown,-25.066,-130.1015,15.8,86,100,9.14,PN,1721505740
2,puerto natales,-51.7236,-72.4875,7.25,61,40,12.86,CL,1721505749
3,east london,-33.0153,27.9116,14.64,68,94,6.01,ZA,1721506022
4,dudinka,69.4058,86.1778,6.3,69,0,6.18,RU,1721506024
5,vorgashor,67.5833,63.95,4.37,69,8,3.16,RU,1721505771
6,inverloch,-38.6333,145.7167,7.81,89,80,6.13,AU,1721506026
7,pisz,53.6274,21.8125,17.3,63,96,1.86,PL,1721506028
8,wailua homesteads,22.0669,-159.378,26.74,73,100,2.68,US,1721505788
9,west island,-12.1568,96.8225,26.99,83,20,7.72,CC,1721505752
10,saipan,15.1355,145.701,28.39,89,75,2.57,MP,1721505798
11,margaret river,-33.95,115.0667,16.27,67,100,9.66,AU,1721506033
12,bredasdorp,-34.5322,20.0403,7.75,88,21,1.75,ZA,1721506034
13,puerto ayora,-0.7393,-90.3518,25.98,89,77,3.58,EC,1721506035
14,longyearbyen,78.2186,15.6401,9.91,66,0,6.69,SJ,1721506036
15,iqaluit,63.7506,-68.5145,7.1,62,69,2.85,CA,1721506038
16,ironwood,46.4547,-90.171,26.12,69,0,1.54,US,1721506039
17,mount pearl,47.5166,-52.7813,19.48,63,1,2.69,CA,1721506040
18,leava,-14.3,-178.1667,27.35,69,93,8.81,WF,1721506042
19,waitangi,-43.9535,-176.5597,10.46,98,100,7.15,NZ,1721506043
20,saldanha,-33.0117,17.9442,11.94,73,8,2.83,ZA,1721506044
21,argo,37.6333,22.7333,29.88,49,0,0.66,GR,1721506045
22,loen,7.7601,168.2307,28.13,78,12,5.96,MH,1721506047
23,usogorsk,63.4106,48.6872,10.8,61,2,2.67,RU,1721506048
24,howrah,22.5892,88.3103,28.0,94,40,2.57,IN,1721506049
25,ferkessedougou,9.6,-5.2,24.81,85,100,2.55,CI,1721506051
26,la passe,45.5549,-0.8967,22.13,89,29,3.25,FR,1721505767
27,labasa,-16.4167,179.3833,24.62,80,0,2.72,FJ,1721506055
28,san antonio de pale,-1.4014,5.6325,22.8,75,48,5.3,GQ,1721506056
29,susuman,62.7833,148.1667,11.18,86,100,3.76,RU,1721506057
30,columbia falls,48.3725,-114.1815,33.96,25,0,2.06,US,1721506059
31,igarka,67.4667,86.5833,8.69,61,96,8.53,RU,1721506060
32,enewetak,11.3474,162.3373,28.56,77,24,7.65,MH,1721506061
33,crane,31.3974,-102.3501,35.86,25,0,4.75,US,1721506063
34,jalai nur,49.45,117.7,17.3,79,5,0.84,CN,1721506064
35,natal,-5.795,-35.2094,27.12,65,75,6.69,BR,1721505765
36,ribeira grande,38.5167,-28.7,25.22,88,20,4.63,PT,1721506068
37,taoudenni,22.6783,-3.9836,42.29,6,15,6.67,ML,1721505833
38,talnakh,69.4865,88.3972,8.51,65,0,6.7,RU,1721506072
39,hamilton,39.1834,-84.5333,30.35,47,75,5.66,US,1721505494
40,keflavik,64.0049,-22.5624,11.24,82,0,3.6,IS,1721506075
41,anadyr,64.75,177.4833,11.28,76,40,7.0,RU,1721506076
42,papatowai,-46.5619,169.4708,7.23,95,42,2.39,NZ,1721506077
43,kirakira,-10.4544,161.9205,26.0,86,5,3.36,SB,1721506079
44,lihue,21.9789,-159.3672,28.58,67,40,5.14,US,1721506080
45,hawaiian paradise park,19.5933,-154.9731,27.8,76,75,4.12,US,1721506081
46,essaouira,31.5125,-9.77,20.91,87,0,10.86,MA,1721506083
47,jamestown,42.097,-79.2353,25.81,43,0,3.6,US,1721505893
48,polyarnyy,69.1989,33.4478,13.86,76,79,1.48,RU,1721506085
49,port-aux-francais,-49.35,70.2167,1.1,74,9,6.53,TF,1721506087
50,gadzhiyevo,69.2551,33.3362,13.26,79,87,2.11,RU,1721506088
51,blackmans bay,-43.0167,147.3167,4.18,92,0,0.89,AU,1721506089
52,hermanus,-34.4187,19.2345,8.22,78,55,0.69,ZA,1721506091
53,minas de marcona,-15.2119,-75.1103,14.28,62,40,6.13,PE,1721506092
54,vanimo,-2.6741,141.3028,24.87,94,100,0.84,PG,1721506093
55,mount isa,-20.7333,139.5,9.87,50,10,0.0,AU,1721506095
56,port mathurin,-19.6833,63.4167,22.65,75,11,6.25,MU,1721505835
57,edinburgh of the seven seas,-37.0676,-12.3116,13.23,78,30,8.31,SH,1721506097
58,cockburn town,21.4612,-71.1419,27.98,78,100,8.23,TC,1721506099
59,happy valley-goose bay,53.3168,-60.3315,13.41,73,100,2.36,CA,1721506100
60,utrik,11.2278,169.8474,27.57,82,11,8.0,MH,1721506101
61,ushuaia,-54.8,-68.3,3.28,87,100,4.49,AR,1721506103
62,new plymouth,-39.0667,174.0833,11.56,100,59,3.28,NZ,1721506104
63,shimanovsk,52.0,127.7,16.19,98,100,1.65,RU,1721506105
64,georgetown,5.4112,100.3354,28.96,74,20,1.03,MY,1721506107
65,taikang,46.8333,124.4167,19.95,95,0,3.69,CN,1721506108
66,xiaoweizhai,26.1903,107.5125,22.36,97,100,2.16,CN,1721506109
67,tecolotlan,20.2167,-104.05,26.33,56,54,1.05,MX,1721506111
68,saudarkrokur,65.7461,-19.6394,6.61,94,100,2.55,IS,1721506112
69,tiksi,71.6872,128.8694,6.63,64,95,1.37,RU,1721506113
70,poggio di chiesanuova,43.9045,12.4214,24.24,71,0,2.06,SM,1721506116
71,lianshan,40.7643,120.8533,22.38,97,28,2.57,CN,1721506117
72,codrington,-38.2667,141.9667,7.17,98,96,5.15,AU,1721506119
73,bilibino,68.0546,166.4372,14.71,80,100,0.93,RU,1721506120
74,laguna,38.421,-121.4238,39.8,24,0,2.57,US,1721506121
75,hasaki,35.7333,140.8333,25.22,88,100,3.47,JP,1721506122
76,lebu,-37.6167,-73.65,8.71,68,0,8.28,CL,1721506039
77,jerez de garcia salinas,22.65,-103.0,24.67,38,99,2.55,MX,1721506125
78,grytviken,-54.2811,-36.5092,-3.45,53,3,3.7,GS,1721506126
79,coahuayana de hidalgo,18.7,-103.6583,32.3,55,91,3.11,MX,1721506128
80,moree,-29.4667,149.85,4.46,76,2,3.57,AU,1721506129
81,kalmunai,7.4167,81.8167,27.25,67,100,3.79,LK,1721506130
82,atafu village,-8.5421,-172.5159,28.3,76,99,10.66,TK,1721506132
83,flagstaff,35.1981,-111.6513,33.66,18,75,5.66,US,1721506133
84,kabalo,-6.05,26.9167,28.61,25,2,1.2,CD,1721506134
85,roseburg,43.2165,-123.3417,29.54,39,0,2.06,US,1721505947
86,vilyuchinsk,52.9306,158.4028,12.15,85,100,0.85,RU,1721506137
87,qaqortoq,60.7167,-46.0333,5.85,90,100,2.82,GL,1721506138
88,albany,42.6001,-73.9662,29.7,61,100,1.34,US,1721506025
89,kristiansund,63.1115,7.732,22.36,53,63,4.12,NO,1721506141
90,chokwe,-24.5333,32.9833,18.45,91,54,2.36,MZ,1721506142
91,port isabel,26.0734,-97.2086,35.04,73,100,2.68,US,1721506144
92,colonia,50.9333,6.95,24.21,86,20,7.72,DE,1721506145
93,kenai,60.5544,-151.2583,22.79,52,0,4.12,US,1721506147
94,namanga,-2.5433,36.7905,22.1,54,100,3.39,KE,1721506148
95,rio grande,-32.035,-52.0986,15.06,90,100,3.47,BR,1721506151
96,sel'tso,53.3675,34.1,15.41,90,13,2.39,RU,1721506153
97,punta arenas,-53.15,-70.9167,7.06,65,75,16.46,CL,1721506025
98,arraial do cabo,-22.9661,-42.0278,21.98,83,0,4.12,BR,1721505949
99,slavyanka,42.8633,131.3847,19.36,100,100,0.85,RU,1721506157
100,howard springs,-12.497,131.047,17.95,55,98,2.97,AU,1721506158
101,kosan,38.8558,127.4181,22.07,97,79,5.44,KP,1721506160
102,turbat,26.0023,63.044,33.15,52,100,2.22,PK,1721506161
103,iquique,-20.2208,-70.1431,16.02,81,56,1.02,CL,1721506000
104,isafjordur,66.0755,-23.124,5.65,68,100,3.97,IS,1721506164
105,sabang,5.8933,95.3214,29.2,77,100,8.34,ID,1721506165
106,carnarvon,-24.8667,113.6333,15.26,45,0,6.55,AU,1721506166
107,margate,51.3813,1.3862,22.61,70,64,3.09,GB,1721505904
108,kingston,17.997,-76.7936,31.53,74,75,7.2,JM,1721505991
109,dul'durga,50.6761,113.5931,17.12,59,96,1.1,RU,1721506170
110,katra,32.9833,74.95,27.26,68,57,2.77,IN,1721506089
111,khandyga,62.6667,135.6,12.2,99,100,0.85,RU,1721506173
112,college,64.8569,-147.8028,22.26,44,20,1.54,US,1721506174
113,fale old settlement,-9.3852,-171.2468,28.39,74,81,10.45,TK,1721506176
114,constantia,44.1833,28.65,24.38,73,0,3.07,RO,1721506177
115,avarua,-21.2078,-159.775,23.03,64,75,10.8,CK,1721506178
116,tual,-5.6667,132.75,25.09,87,100,10.42,ID,1721505882
117,bumba,2.1833,22.4667,22.27,96,100,0.9,CD,1721506181
118,vadso,70.0744,29.7487,13.49,100,100,2.57,NO,1721506182
119,camana,-16.6228,-72.7111,14.79,84,93,1.84,PE,1721506184
120,kani keli,-12.9536,45.1033,23.59,61,5,2.75,YT,1721506185
121,port saint john's,-31.6229,29.5448,16.06,62,47,2.13,ZA,1721506186
122,tidjikja,18.5564,-11.4271,36.45,22,0,5.4,MR,1721506188
123,bethel,41.3712,-73.414,28.08,73,100,4.0,US,1721506004
124,orchard homes,46.8633,-114.0484,37.3,19,0,2.24,US,1721506190
125,uitenhage,-33.7576,25.3971,12.02,79,17,4.7,ZA,1721506192
126,lompoc,34.6391,-120.4579,26.99,73,0,7.72,US,1721506193
127,port lincoln,-34.7333,135.8667,12.72,83,20,7.23,AU,1721506194
128,the bottom,17.6259,-63.2492,29.07,75,25,7.21,BQ,1721506196
129,ancud,-41.8697,-73.8203,7.04,80,99,1.63,CL,1721506197
130,conduaga,8.862,117.4893,25.32,87,100,2.06,PH,1721506198
131,thompson,55.7435,-97.8558,28.8,26,17,2.58,CA,1721506199
132,opuwo,-18.0607,13.84,17.38,21,6,1.46,NA,1721506201
133,labuan bajo,-8.4964,119.8877,22.34,81,3,2.32,ID,1721506203
134,aasiaat,68.7098,-52.8699,6.6,80,58,2.72,GL,1721506204
135,chonchi,-42.6128,-73.8092,8.4,89,100,0.34,CL,1721506206
136,kapuskasing,49.4169,-82.4331,21.0,35,3,3.7,CA,1721506207
137,dwarka,22.2394,68.9678,28.77,88,68,6.49,IN,1721506208
138,juneau,58.3019,-134.4197,16.0,88,100,2.57,US,1721506210
139,kasimov,54.9411,41.3953,16.05,93,17,2.47,RU,1721506212
140,murzuq,25.9155,13.9184,32.38,17,0,3.74,LY,1721506214
141,salekhard,66.53,66.6019,5.56,75,0,2.64,RU,1721506215
142,taro,-8.3862,115.28,22.0,98,81,0.75,ID,1721506216
143,yellowknife,62.456,-114.3525,21.9,69,100,0.89,CA,1721506218
144,alice,27.7523,-98.0697,36.94,39,0,3.6,US,1721506219
145,katsuura,35.1333,140.3,25.14,93,100,3.2,JP,1721506220
146,takahagi,36.7167,140.7167,21.77,100,100,1.3,JP,1721506222
147,karratha,-20.7377,116.8463,18.36,41,59,5.95,AU,1721506223
148,punta alta,-38.8759,-62.0736,7.08,53,100,0.82,AR,1721506034
149,mount gambier,-37.8333,140.7667,8.73,98,66,3.31,AU,1721506226
150,puerto armuelles,8.2833,-82.8667,29.98,87,100,0.45,PA,1721506071
151,egilsstadir,65.2653,-14.3948,10.75,79,100,1.84,IS,1721506228
152,kodiak,57.79,-152.4072,19.73,52,75,4.63,US,1721506232
153,bludenz,47.1497,9.8167,22.51,62,5,1.98,AT,1721506234
154,burang,30.25,81.1667,12.1,73,100,2.18,CN,1721506235
155,port alfred,-33.5906,26.891,14.94,64,59,8.84,ZA,1721506236
156,port elizabeth,-33.918,25.5701,12.4,81,28,1.79,ZA,1721506238
157,northam,51.0333,-4.2167,15.77,95,100,3.04,GB,1721506239
158,sola,-13.8833,167.55,26.68,81,32,6.76,VU,1721506240
159,hluti,-27.2167,31.6167,13.91,92,31,1.21,SZ,1721506241
160,upper grand lagoon,30.1633,-85.7408,32.24,73,40,2.06,US,1721506243
161,nova sintra,14.8667,-24.7167,26.04,83,13,2.57,CV,1721506244
162,mejit,10.2753,170.8646,27.82,81,21,7.07,MH,1721506245
163,kerman,30.2832,57.0788,30.75,18,6,4.44,IR,1721506247
164,schollnach,48.75,13.1833,20.98,89,4,1.69,DE,1721506248
165,udachny,66.4167,112.4,15.65,82,100,2.74,RU,1721506249
166,flying fish cove,-10.4217,105.6791,24.82,83,75,5.14,CX,1721506251
167,roshchino,60.2519,29.6085,15.21,92,19,2.43,RU,1721506252
168,bakchar,57.0186,82.0711,16.21,98,100,1.83,RU,1721506253
169,iskilip,40.7353,34.4739,23.49,52,28,2.51,TR,1721506255
170,erenhot,43.6475,111.9767,26.15,46,98,1.74,CN,1721506256
171,tasqala,51.1167,50.3167,27.16,36,76,4.76,KZ,1721506257
172,uturoa,-16.7333,-151.4333,24.54,69,14,10.78,PF,1721506260
173,vila velha,-20.3297,-40.2925,22.97,83,20,4.63,BR,1721506262
174,mukdahan,16.5833,104.5,24.52,96,100,1.63,TH,1721506264
175,i-n-salah,27.1935,2.4607,38.62,10,0,5.4,DZ,1721506267
176,namibe,-15.1961,12.1522,16.91,86,73,0.77,AO,1721506268
177,freetown,8.484,-13.2299,25.28,88,100,5.46,SL,1721506269
178,hadibu,12.65,54.0333,26.04,80,89,10.71,YE,1721506271
179,tateyama,34.9833,139.8667,26.17,93,100,2.64,JP,1721506272
180,tulun,54.5611,100.5792,16.83,94,100,1.51,RU,1721506273
181,lucheng,31.2336,117.2806,26.95,84,97,3.03,CN,1721506275
182,gornozavodsk,58.3758,58.3211,12.86,94,100,4.34,RU,1721506276
183,cannonvale,-20.2833,148.7,16.66,70,14,1.39,AU,1721506277
184,angaur state,6.906,134.13,28.18,80,100,4.93,PW,1721506279
185,nkhata bay,-11.6066,34.2907,21.22,66,0,1.56,MW,1721506280
186,vatutine,49.015,31.0621,20.05,47,93,3.56,UA,1721506281
187,kailua-kona,19.6406,-155.9956,27.98,87,0,5.66,US,1721506283
188,inhambane,-23.865,35.3833,20.71,79,14,4.35,MZ,1721506284
189,fiambala,-27.6871,-67.6149,15.49,32,91,5.13,AR,1721506287
190,remire-montjoly,4.9167,-52.2667,31.02,66,0,2.57,GF,1721506288
191,walvis bay,-22.9575,14.5053,12.83,78,5,3.56,NA,1721506289
192,olonkinbyen,70.9221,-8.7187,4.25,96,100,4.17,SJ,1721506291
193,goundi,9.3627,17.366,21.86,97,100,1.67,TD,1721506292
194,korsor,55.3299,11.1386,19.01,68,0,4.5,DK,1721506293
195,port hueneme,34.1478,-119.1951,38.62,66,0,3.09,US,1721506190
196,pisco,-13.7,-76.2167,19.03,63,0,7.2,PE,1721506076
197,invercargill,-46.4,168.35,3.86,96,69,1.65,NZ,1721506297
198,tshabong,-26.05,22.45,10.27,26,16,3.95,BW,1721506299
199,hobyo,5.3505,48.5268,24.31,81,100,11.16,SO,1721506300
200,badger,64.8,-147.5333,22.21,46,0,1.54,US,1721506301
201,antsiranana,-12.2787,49.2917,20.41,71,5,4.71,MG,1721506303
202,xining,36.6167,101.7667,16.97,87,98,1.08,CN,1721506304
203,luganville,-15.5333,167.1667,25.26,90,92,4.53,VU,1721506305
204,bolszewo,54.618,18.1759,19.36,85,7,1.45,PL,1721506307
205,ilulissat,69.2167,-51.1,13.01,50,94,1.54,GL,1721506308
206,ebon,4.582,168.6964,28.97,74,28,6.08,MH,1721506309
207,carutapera,-1.195,-46.02,27.03,75,97,4.69,BR,1721506311
208,prince george,53.9166,-122.753,29.2,38,8,0.72,CA,1721506312
209,basoko,1.2391,23.616,22.11,95,100,1.0,CD,1721506313
210,alofi,-19.0595,-169.9187,23.94,83,41,1.54,NU,1721506315
211,sal rei,16.1833,-22.9167,24.36,82,0,6.08,CV,1721506316
212,petropavlovsk-kamchatsky,53.0452,158.6483,11.33,100,100,1.0,RU,1721506317
213,lazaro cardenas,17.9583,-102.2,30.43,60,100,1.0,MX,1721506319
214,novo cruzeiro,-17.4681,-41.8753,21.35,47,1,2.09,BR,1721506320
215,la ronge,55.1001,-105.2842,31.14,30,5,1.54,CA,1721506322
216,puerto ayacucho,5.6639,-67.6236,24.59,88,99,1.03,VE,1721506323
217,arauco,-37.2463,-73.3175,11.66,58,0,2.31,CL,1721506324
218,krasnyy chikoy,50.3643,108.7512,18.59,70,100,1.7,RU,1721506326
219,teknaf,20.8624,92.3058,27.33,89,100,5.81,BD,1721506327
220,cranfield,52.0687,-0.6088,20.72,92,89,0.89,GB,1721506329
221,holualoa,19.6228,-155.9522,25.91,89,0,5.66,US,1721506295
222,ejea de los caballeros,42.1263,-1.1372,28.12,62,79,6.1,ES,1721506332
223,fuerte olimpo,-21.0415,-57.8738,34.52,17,0,2.97,PY,1721506333
224,mitu,1.1983,-70.1733,25.99,90,72,0.56,CO,1721506335
225,saint-pierre,-21.3393,55.4781,19.76,77,0,2.06,RE,1721506336
226,oamaru,-45.0784,170.9801,5.38,81,15,1.87,NZ,1721506337
227,puerto baquerizo moreno,-0.9,-89.6,22.55,78,100,6.69,EC,1721506339
228,yemva,62.59,50.8594,12.39,63,0,2.65,RU,1721506340
229,palmer,42.1584,-72.3287,29.13,53,75,5.14,US,1721506342
230,bafra,41.5678,35.9069,23.69,91,0,2.04,TR,1721506343
231,tsiombe,-25.3,45.4833,17.64,74,1,1.38,MG,1721506345
232,soe,-9.8607,124.284,14.77,95,40,1.89,ID,1721506346
233,warwick,41.7001,-71.4162,29.86,55,75,6.17,US,1721506348
234,mantua,45.1667,10.7833,27.58,79,0,3.49,IT,1721506349
235,whitehorse,60.7161,-135.0538,21.72,37,59,2.39,CA,1721506350
236,sisimiut,66.9395,-53.6735,13.42,60,7,5.45,GL,1721506352
237,khorixas,-20.3667,14.9667,15.32,31,3,2.07,NA,1721506353
238,victoria falls,-17.9235,25.843,17.87,27,0,1.18,ZW,1721506355
239,ar rutbah,33.0381,40.2848,31.76,25,0,1.86,IQ,1721506356
240,pama,11.2497,0.7075,24.2,88,100,1.79,BF,1721506358
241,luanda,-8.8368,13.2343,20.1,90,1,4.44,AO,1721506359
242,jieshi,22.8134,115.8257,28.98,82,6,4.0,CN,1721506360
243,kapa'a,22.0752,-159.319,28.99,69,40,5.14,US,1721506362
244,sitka,57.0531,-135.33,14.94,88,100,2.06,US,1721506208
245,taco pozo,-25.6167,-63.2833,21.26,50,48,1.62,AR,1721506365
246,stanley,54.868,-1.6985,20.1,83,20,2.06,GB,1721506366
247,ikom,5.9667,8.7063,22.59,98,96,1.31,NG,1721506368
248,medea,36.2642,2.7539,28.5,29,0,1.65,DZ,1721506370
249,merizo village,13.2658,144.6691,27.21,93,99,5.22,GU,1721506372
250,bonthe,7.5264,-12.505,24.92,91,100,5.61,SL,1721506373
251,aral,40.5156,81.2636,29.04,32,0,3.48,CN,1721506375
252,gaalkacyo,6.7697,47.4308,26.61,51,100,10.84,SO,1721506376
253,yung shue wan,22.2333,114.1167,29.82,89,22,0.45,HK,1721506378
254,butterworth,5.3991,100.3638,29.02,74,20,1.03,MY,1721506379
255,rawson,-43.3002,-65.1023,12.62,38,1,4.78,AR,1721506381
256,gebeit,21.0667,36.3167,31.35,25,76,1.81,SD,1721506382
257,sao jose da coroa grande,-8.8978,-35.1478,23.83,81,54,6.6,BR,1721506384
258,nampula,-15.1165,39.2666,19.97,77,0,2.57,MZ,1721506385
259,ust-nera,64.5667,143.2,13.07,97,100,2.59,RU,1721506386
260,anqiu,36.4342,119.1925,24.26,98,50,3.24,CN,1721506388
261,kerikeri,-35.2268,173.9474,13.28,95,59,2.24,NZ,1721506389
262,labytnangi,66.6572,66.4183,5.76,74,0,2.24,RU,1721506391
263,illapel,-31.6308,-71.1653,12.17,74,0,3.76,CL,1721506392
264,cox's bazar,21.4532,91.9798,26.88,92,100,6.33,BD,1721506394
265,ekibastuz,51.6667,75.3667,22.39,55,92,2.77,KZ,1721506395
266,atlanta,33.749,-84.388,28.75,73,75,3.09,US,1721506397
267,nar'yan-mar,67.6713,53.087,6.08,81,10,2.66,RU,1721506398
268,bryan,30.6744,-96.37,33.3,48,40,3.6,US,1721506399
269,midvagur,62.0511,-7.1939,11.46,100,100,3.6,FO,1721506401
270,livingston,55.9029,-3.5226,16.74,94,100,2.57,GB,1721506402
271,klaksvik,62.2266,-6.589,11.51,98,100,6.73,FO,1721506404
272,puerto deseado,-47.7503,-65.8938,7.56,65,100,6.37,AR,1721506405
273,cabo san lucas,22.8909,-109.9124,33.61,51,0,2.57,MX,1721505932
274,nchelenge,-9.3451,28.734,20.25,51,0,1.36,ZM,1721506408
275,piacabucu,-10.4056,-36.4344,23.66,68,3,4.05,BR,1721506409
276,faya-largeau,17.9257,19.1043,33.28,39,33,4.51,TD,1721506411
277,harper,4.375,-7.7169,24.26,84,99,5.4,LR,1721506412
278,de haan,51.272,3.0429,21.99,71,20,3.09,BE,1721506414
279,vernon,50.2581,-119.2691,35.52,18,0,1.03,CA,1721506415
280,fordingbridge,50.9275,-1.7903,18.81,96,75,1.54,GB,1721506417
281,ofunato,39.0717,141.7167,21.75,91,100,2.49,JP,1721506418
282,castletown,53.0281,-9.0686,13.27,83,0,5.17,IE,1721506420
283,ringkobing,56.0901,8.244,18.99,77,0,2.06,DK,1721506422
284,cacheu,12.2706,-16.1658,29.05,83,26,3.55,GW,1721506424
285,ar raqqah,35.95,39.0167,32.82,39,0,10.88,SY,1721506425
286,igrim,63.1906,64.4162,10.24,72,100,4.0,RU,1721506427
287,shenjiamen,29.9576,122.298,26.51,95,95,8.01,CN,1721506428
288,dunedin,-45.8742,170.5036,8.22,84,13,1.34,NZ,1721506429
289,nemuro,43.3236,145.575,16.21,100,100,1.67,JP,1721506432
290,tropea,38.6754,15.8948,26.61,69,0,1.16,IT,1721506434
291,pergamino,-33.89,-60.5736,8.45,88,100,4.05,AR,1721506435
292,farkhar,36.5729,69.8578,21.5,38,50,1.43,AF,1721506438
293,kyabe,9.4515,18.9449,23.33,89,100,2.71,TD,1721506440
294,chipata,-13.6333,32.65,16.55,41,2,2.3,ZM,1721506441
295,lucapa,-8.4192,20.7447,21.47,19,0,0.84,AO,1721506442
296,gaspe,48.8334,-64.4819,29.12,32,40,6.17,CA,1721506444
297,cozumel,20.5083,-86.9458,32.04,70,75,6.17,MX,1721506445
298,buta,2.7858,24.73,21.79,98,100,0.82,CD,1721506447
299,carhuamayo,-10.9167,-76.0333,7.75,55,96,4.97,PE,1721506448
300,luderitz,-26.6481,15.1594,14.32,57,48,8.2,NA,1721506450
301,hoopstad,-27.8327,25.9083,5.81,21,0,3.3,ZA,1721506451
302,puerto cabezas,14.0351,-83.3888,30.98,79,40,4.12,NI,1721506453
303,ciudad lazaro cardenas,17.9583,-102.2,30.43,60,100,1.0,MX,1721506319
304,arak,34.0917,49.6892,25.95,20,0,1.72,IR,1721506455
305,tolanaro,-25.0319,46.9987,17.04,94,0,0.0,MG,1721506457
306,corinto,37.9407,22.9573,29.94,37,0,0.74,GR,1721506458
307,rongelap,11.1635,166.8941,27.97,80,5,7.92,MH,1721506460
308,guymon,36.6828,-101.4816,31.0,40,0,6.05,US,1721506461
309,medina,24.4686,39.6142,37.24,11,0,3.09,SA,1721506463
310,nanao,37.05,136.9667,25.18,86,100,1.36,JP,1721506464
311,kruisfontein,-34.0033,24.7314,11.05,73,15,5.47,ZA,1721506466
312,al ghayzah,16.2079,52.176,26.65,84,99,6.35,YE,1721506467
313,dalnegorsk,44.5604,135.5701,20.0,93,100,0.78,RU,1721506468
314,bel ombre,-4.6167,55.4167,25.91,83,20,8.23,SC,1721506470
315,riohacha,11.5444,-72.9072,31.06,84,20,6.17,CO,1721506471
316,naxos,37.1056,25.3764,29.77,63,0,2.06,GR,1721506473
317,karrapur,23.95,78.85,29.87,67,94,2.57,IN,1721506474
318,bikenibeu village,1.3673,173.1241,28.92,74,84,8.82,KI,1721506476
319,mahibadhoo,3.7833,72.9667,28.03,81,58,3.27,MV,1721506477
320,oulad teima,30.3947,-9.209,24.6,56,0,3.19,MA,1721506479
321,ramotswa,-24.8716,25.8699,14.79,26,2,2.16,BW,1721506480
322,hailey,43.5196,-114.3153,35.52,11,98,4.62,US,1721506482
323,sechura,-5.5569,-80.8222,23.13,57,2,8.89,PE,1721506483
324,nadi,-17.8,177.4167,24.0,83,20,2.06,FJ,1721506484
325,batticaloa,7.7102,81.6924,27.54,63,100,1.88,LK,1721506486
326,mao,39.8885,4.2658,26.31,89,0,4.12,ES,1721506487
327,acarau,-2.8856,-40.12,26.45,68,0,8.19,BR,1721506489
328,honcho,35.6931,139.9833,27.26,86,100,2.42,JP,1721506490
329,afaahiti,-17.75,-149.2833,24.93,69,99,10.73,PF,1721506492
330,delice,39.9537,34.0259,26.0,43,5,2.72,TR,1721506493
331,haiku-pauwela,20.9219,-156.3051,27.92,69,40,7.72,US,1721506495
332,st. john's,47.5649,-52.7093,24.26,64,20,3.6,CA,1721506498
333,dilling,12.05,29.65,25.57,71,13,3.72,SD,1721506499
334,kavieng,-2.5744,150.7967,27.4,81,99,5.73,PG,1721506501
335,tralee,52.2704,-9.7026,12.9,86,65,3.26,IE,1721506502
336,mooirivier,-29.2082,29.9946,7.57,93,92,2.79,ZA,1721506504
337,tionk essil,12.7856,-16.5217,29.03,83,34,4.52,SN,1721506505
338,sandnessjoen,66.0217,12.6316,20.29,87,88,4.94,NO,1721506506
339,tura,25.5198,90.2201,25.26,93,97,2.09,IN,1721506508
340,becerril,9.7041,-73.2793,36.57,43,31,3.04,CO,1721506509
341,korla,41.7597,86.1469,28.07,35,0,0.7,CN,1721506511
342,linfen,36.0889,111.5189,28.36,61,99,0.94,CN,1721506512
343,tomatlan,19.9333,-105.25,35.03,47,9,4.8,MX,1721506514
344,wachtberg,50.6213,7.1259,24.84,64,80,1.71,DE,1721506515
345,luau,-10.7073,22.2247,19.09,24,0,1.58,AO,1721506517
346,kununurra,-15.7667,128.7333,8.99,87,5,1.54,AU,1721506518
347,al qusiyah,27.4402,30.8184,34.15,15,0,2.37,EG,1721506520
348,prado,-17.3411,-39.2208,23.49,74,32,4.56,BR,1721506521
349,tvoroyri,61.5556,-6.8111,11.08,97,100,6.13,FO,1721506522
350,narok,-1.0783,35.8601,15.77,84,92,2.03,KE,1721506524
351,alice springs,-23.7,133.8833,-0.25,80,0,2.06,AU,1721506525
352,palikir - national government center,6.9248,158.1611,27.41,89,75,2.06,FM,1721506308
353,stanford-le-hope,51.5227,0.4342,21.93,75,20,4.12,GB,1721506528
354,praia da vitoria,38.7333,-27.0667,25.98,83,75,1.91,PT,1721506530
355,guerrero negro,27.9769,-114.0611,27.8,55,96,4.66,MX,1721506531
356,prince rupert,54.3161,-130.3201,17.08,90,100,1.55,CA,1721506285
357,lekki,6.3607,4.8333,23.38,94,45,2.5,NG,1721506534
358,tazovsky,67.4667,78.7,6.03,73,0,5.39,RU,1721506535
359,coquimbo,-29.9533,-71.3436,14.43,64,100,3.6,CL,1721506537
360,marat,25.0701,45.4615,35.95,11,46,3.9,SA,1721506538
361,myeik,12.4333,98.6,26.57,89,100,2.21,MM,1721506540
362,kirovskiy,45.0917,133.5136,20.72,98,100,3.4,RU,1721506541
363,juan griego,11.0817,-63.9655,33.07,62,0,6.17,VE,1721506544
364,watertown,42.3709,-71.1828,30.57,43,0,6.69,US,1721506545
365,rosarito,32.3333,-117.0333,34.4,61,27,5.48,MX,1721506547
366,montpellier,43.6109,3.8772,25.71,76,0,4.63,FR,1721506548
367,uzgen,40.7699,73.3007,23.16,37,0,2.63,KG,1721506550
368,selfoss,63.9331,-20.9971,15.58,68,66,4.05,IS,1721506551
369,franeker,53.1855,5.5412,24.42,69,100,1.54,NL,1721506553
370,windhoek,-22.5594,17.0832,12.84,12,2,0.89,NA,1721506554
371,p'ot'i,42.1462,41.672,20.97,90,0,3.11,GE,1721506556
372,taoyuan city,24.9937,121.297,29.6,85,20,1.54,TW,1721506557
373,skiathos,39.1623,23.4909,28.09,65,0,0.0,GR,1721506559
374,paita,-5.0892,-81.1144,19.82,72,5,9.68,PE,1721506560
375,qom,34.6401,50.8764,34.48,16,0,7.76,IR,1721506563
376,nastola,60.95,25.9333,16.58,97,4,2.32,FI,1721506564
377,touros,-5.1989,-35.4608,25.19,78,2,6.17,BR,1721506566
378,north battleford,52.7834,-108.2847,30.05,48,75,1.03,CA,1721506567
379,piti village,13.4626,144.6933,28.03,92,20,2.06,GU,1721506569
380,al jawf,29.5,38.75,31.84,17,0,2.67,SA,1721506570
381,hafar al-batin,28.4328,45.9708,37.32,9,0,1.54,SA,1721506572
382,savoy,45.5,6.4167,16.87,15,4,2.56,FR,1721506573
383,novodvinsk,64.4165,40.8122,12.86,68,1,2.43,RU,1721506575
384,riachao,-7.3619,-46.6172,33.02,21,0,3.66,BR,1721506576
385,banyo,6.75,11.8167,19.14,97,100,1.09,CM,1721506577
386,barcelos,41.5388,-8.6151,20.51,95,95,2.41,PT,1721506579
387,taghazout,30.5426,-9.7112,25.43,71,2,2.24,MA,1721506580
388,benton harbor,42.1167,-86.4542,26.98,59,0,3.09,US,1721506582
389,gondomar,41.1445,-8.5322,20.79,92,98,4.02,PT,1721506583
390,namikupa,-10.8333,39.6,16.77,90,92,0.84,TZ,1721506585
391,port shepstone,-30.7414,30.455,16.85,59,54,2.91,ZA,1721506586
392,shakiso,5.75,38.9167,15.54,88,100,0.63,ET,1721506588
393,holbrook,40.8123,-73.0784,28.25,64,75,6.17,US,1721506509
394,iskateley,67.6803,53.1512,6.09,81,10,2.65,RU,1721506590
395,ituiutaba,-18.9689,-49.465,29.99,17,0,2.29,BR,1721506592
396,egersund,58.4513,5.9997,20.57,71,0,5.04,NO,1721506593
397,catemaco,18.4167,-95.1167,28.35,75,79,1.68,MX,1721506595
398,lincheng,19.9078,109.6858,26.79,90,18,3.49,CN,1721506596
399,kati,12.7441,-8.0726,23.67,81,100,1.78,ML,1721506598
400,lubang,13.8584,120.124,28.68,79,99,7.39,PH,1721506599
401,baoding,38.8511,115.4903,26.25,71,99,2.76,CN,1721506600
402,piskivka,50.6938,29.6193,18.62,60,33,0.96,UA,1721506602
403,kuraymah,18.55,31.85,38.67,21,63,5.82,SD,1721506603
404,santa elena de uairen,4.6167,-61.1333,23.85,75,66,2.65,VE,1721506605
405,harstad,68.799,16.5293,17.91,88,100,1.34,NO,1721506606
406,hammerfest,70.6634,23.6821,13.25,94,40,0.0,NO,1721506608
407,buchanan,5.8808,-10.0467,24.02,95,100,5.32,LR,1721506609
408,villiers,-27.0303,28.6006,8.17,36,0,2.22,ZA,1721506611
409,kermit,31.8576,-103.0927,34.37,24,64,4.24,US,1721506612
410,port augusta,-32.5,137.7667,8.7,94,6,3.87,AU,1721506614
411,marka,1.7159,44.7717,24.83,83,99,5.47,SO,1721506615
412,abepura,-2.6333,140.5833,24.45,94,40,0.51,ID,1721506616
413,morehead city,34.7229,-76.726,31.68,76,0,7.72,US,1721506618
414,naze,28.3667,129.4833,28.51,83,11,2.48,JP,1721506620
415,zarqa,32.0728,36.088,28.95,36,0,4.12,JO,1721506621
416,ciudad melchor muzquiz,27.8833,-101.5167,34.97,35,15,3.99,MX,1721506622
417,deder,9.3167,41.45,14.41,89,89,2.9,ET,1721506624
418,grand falls-windsor,48.9332,-55.6649,28.61,49,76,3.14,CA,1721506625
419,kidal,18.4411,1.4078,37.67,19,21,4.27,ML,1721506626
420,nouadhibou,20.931,-17.0347,23.99,69,99,9.26,MR,1721506628
421,eksere,36.8134,31.9997,24.53,32,0,4.07,TR,1721506629
422,derbent,42.0678,48.2899,26.33,52,64,2.36,RU,1721506630
423,burao,9.5221,45.5336,24.12,53,34,10.93,SO,1721506631
424,lata,40.1629,-8.3327,21.15,85,16,2.29,PT,1721506633
425,mili,6.0815,171.735,28.81,75,70,7.02,MH,1721506634
426,trenggalek,-8.05,111.7167,21.38,96,78,1.18,ID,1721506635
427,kuta,-8.7233,115.1723,25.97,78,40,8.23,ID,1721506637
428,birobidzhan,48.8,132.95,18.57,95,100,0.51,RU,1721506632
429,ortigueira,-24.2083,-50.9494,21.0,46,0,1.29,BR,1721506639
430,loum,4.7182,9.7351,21.93,98,84,0.4,CM,1721506641
431,franklin,39.9667,-83.0166,29.8,42,0,2.57,US,1721506381
432,bathsheba,13.2167,-59.5167,30.34,74,20,9.26,BB,1721506645
433,katima mulilo,-17.5,24.2667,17.23,24,0,0.81,NA,1721506646
434,alamos,27.0167,-108.9333,34.3,45,73,2.87,MX,1721506647
435,safaga,26.7292,33.9365,33.39,39,3,2.36,EG,1721506649
436,revda,56.801,59.9303,15.74,98,100,1.13,RU,1721506650
437,jaicos,-7.3592,-41.1378,28.13,38,19,5.59,BR,1721506651
438,fort st. john,56.2499,-120.8529,24.94,53,0,1.54,CA,1721506653
439,hithadhoo,-0.6,73.0833,28.73,74,95,2.78,MV,1721506654
440,perelyub,51.8667,50.3667,25.02,48,63,2.91,RU,1721506657
441,aleksandrov gay,50.147,48.5704,25.42,48,1,5.94,RU,1721506658
442,tromso,69.6496,18.957,14.01,82,0,2.06,NO,1721506659
443,plymouth,41.8334,-70.8328,30.05,58,20,5.66,US,1721506661
444,pangoa,-12.1167,-73.0,29.51,34,6,1.9,PE,1721506662
445,astrakhan,46.3497,48.0408,28.93,45,40,6.0,RU,1721506663
446,gaiman,-43.2897,-65.4929,11.82,27,0,3.7,AR,1721506665
447,yurimaguas,-5.9,-76.0833,31.09,70,75,2.06,PE,1721506666
448,bolkhov,53.4433,36.0044,15.46,85,68,3.25,RU,1721506667
449,reguiba,33.5639,6.7033,38.03,16,0,1.03,DZ,1721506669
450,oujda-angad,34.6805,-1.9076,30.35,19,0,2.57,MA,1721506670
451,mont-tremblant,46.1949,-74.6264,21.87,68,100,0.51,CA,1721506482
452,euclides da cunha,-10.5075,-39.0158,23.81,41,45,3.4,BR,1721506673
453,rehoboth,-23.3167,17.0833,8.57,31,2,1.01,NA,1721506674
454,luba,3.4568,8.5547,24.94,86,39,5.21,GQ,1721506675
455,hirara,24.8,125.2833,28.92,100,13,3.6,JP,1721506677
456,kalevala,65.2,31.1667,10.6,72,44,2.65,RU,1721506678
457,sabha,27.0377,14.4283,32.7,16,0,4.08,LY,1721506680
458,chegdomyn,51.1167,133.0167,16.1,96,100,0.7,RU,1721506681
459,greenville,35.6127,-77.3663,32.01,66,40,6.69,US,1721506450
460,celendin,-6.8703,-78.1517,21.29,35,25,3.99,PE,1721506684
461,cua,10.1589,-66.8858,30.82,70,37,0.82,VE,1721506686
462,san patricio,28.017,-97.5169,34.4,43,61,3.39,US,1721506688
463,zhigalovo,54.8097,105.1578,17.7,94,100,0.49,RU,1721506689
464,antonio enes,-16.2325,39.9086,22.36,73,0,3.6,MZ,1721506690
465,nyrob,60.733,56.7202,11.15,89,10,2.48,RU,1721506691
466,mariental,-24.6333,17.9667,12.98,27,34,4.52,NA,1721506693
467,gazli,40.1333,63.45,30.99,20,0,4.99,UZ,1721506694
468,camapua,-19.5314,-54.0439,31.78,15,0,3.1,BR,1721506695
469,pithapuram,17.1167,82.2667,24.85,90,92,6.08,IN,1721506697
470,ouarzazat,30.9189,-6.8934,33.16,15,20,4.63,MA,1721506698
471,kavaratti,10.5669,72.642,27.43,85,100,7.63,IN,1721506699
472,antofagasta,-23.65,-70.4,18.6,79,68,3.71,CL,1721506701
473,yantzaza,-3.8278,-78.7594,25.19,63,89,1.36,EC,1721506702
474,manacapuru,-3.2997,-60.6206,33.37,42,35,0.35,BR,1721506703
475,markaz-e hukumat-e darweshan,31.1323,64.1934,31.39,14,70,2.11,AF,1721506705
476,tabas,33.5959,56.9244,36.12,16,0,2.06,IR,1721506706
477,alaghsas,17.0187,8.0168,32.42,41,92,0.47,NE,1721506707
478,eirunepe,-6.6603,-69.8736,34.74,32,94,0.83,BR,1721506709
479,mossel bay,-34.1831,22.146,10.96,69,100,2.4,ZA,1721506710
480,zhongshan,21.3226,110.5829,26.9,91,16,4.92,CN,1721506711
481,new norfolk,-42.7826,147.0587,4.84,94,19,1.13,AU,1721506713
482,mahriz,31.5917,54.4318,34.28,19,0,1.4,IR,1721506714
483,obidos,-1.9175,-55.5181,34.29,37,97,3.64,BR,1721506716
484,mildura,-34.2,142.15,6.15,90,0,4.18,AU,1721506717
485,thaba-tseka,-29.522,28.6084,1.14,29,0,2.06,LS,1721506718
486,camabatela,-8.1881,15.375,17.48,61,17,1.32,AO,1721506721
487,sinop,41.7711,34.8709,20.23,85,7,1.41,TR,1721506722
488,callao,-12.0667,-77.15,18.16,68,20,7.72,PE,1721506643
489,lalibela,12.0333,39.0333,17.96,66,24,1.86,ET,1721506725
490,oltinko'l,40.8011,72.1634,29.0,26,0,2.33,UZ,1721506726
491,anqing,30.5092,117.0506,27.8,76,97,1.35,CN,1721506728
492,conception bay south,47.4999,-52.9981,24.69,65,6,2.04,CA,1721506729
493,klyuchi,52.2667,79.1667,18.43,81,42,2.77,RU,1721506730
494,palmas,-10.2128,-48.3603,31.93,37,0,2.57,BR,1721506337
495,deqen,29.9618,90.7188,10.17,86,100,0.55,CN,1721506733
496,sinabang,2.4803,96.3801,26.95,82,100,1.52,ID,1721506734
497,mitsamiouli,-11.3847,43.2844,25.32,64,6,2.81,KM,1721506736
498,stari kuty,48.2709,25.1729,20.38,74,100,1.4,UA,1721506737
499,porangatu,-13.4408,-49.1486,32.4,17,5,0.7,BR,1721506548
500,douentza,14.9951,-2.9517,29.09,54,100,3.12,ML,1721506740
501,kavalerovo,44.2661,135.0572,20.88,96,100,1.67,RU,1721506741
502,adh dhibiyah,24.5014,45.9686,37.13,10,100,4.72,SA,1721506742
503,tazacorte,28.629,-17.9293,25.08,78,20,7.72,ES,1721506744
504,altpinar,39.2042,32.7478,24.55,46,4,4.21,TR,1721506745
505,greymouth,-42.4667,171.2,6.02,93,100,2.87,NZ,1721506746
506,inderbor,48.55,51.7833,31.42,26,100,2.55,KZ,1721506748
507,formosa do rio preto,-11.0483,-45.1931,29.61,24,3,3.28,BR,1721506749
508,fontana,34.0922,-117.4351,40.89,21,0,5.14,US,1721506530
509,vorkuta,67.5,64.0,4.57,70,8,3.05,RU,1721506752
510,plastun,44.7561,136.2939,18.97,97,100,1.03,RU,1721506753
511,elliot lake,46.3834,-82.6331,22.3,74,88,2.09,CA,1721506494
512,zaragoza,41.6561,-0.8773,33.22,35,0,8.23,ES,1721506756
513,grevena,40.0845,21.4274,23.56,52,78,1.4,GR,1721506757
514,megion,61.0296,76.1136,18.01,53,100,5.93,RU,1721506758
515,brisas de zicatela,15.8369,-97.0419,30.29,74,100,6.17,MX,1721506760
516,salalah,17.0151,54.0924,25.05,100,100,1.54,OM,1721506761
517,yelizovo,53.1873,158.3805,12.08,100,100,0.0,RU,1721506763
518,an nuhud,12.7,28.4333,30.86,50,13,4.79,SD,1721506764
519,nikolayevsk-on-amure,53.1406,140.73,17.47,100,100,0.6,RU,1721506765
520,malabar,-33.9667,151.25,11.51,60,0,8.75,AU,1721506767
521,ilomantsi,62.6716,30.9328,17.05,78,100,3.72,FI,1721506768
522,jetpur,21.7333,70.6167,27.3,90,100,2.51,IN,1721506769
523,kudahuvadhoo,2.6708,72.8944,28.17,78,26,1.17,MV,1721506771
524,tobelo,1.7284,128.0095,25.82,84,95,3.53,ID,1721506773
525,puerto colombia,10.9878,-74.9547,31.05,76,100,6.82,CO,1721506774
526,moranbah,-22.0016,148.0466,10.28,50,0,4.7,AU,1721506775
527,usol'ye-sibirskoye,52.7519,103.6453,18.08,99,100,2.1,RU,1721506777
528,ialibu,-6.2821,143.9935,14.28,100,100,0.76,PG,1721506778
529,north bay,46.3168,-79.4663,20.01,100,100,2.57,CA,1721506535
530,svetlograd,45.3353,42.8547,23.12,57,100,1.47,RU,1721506781
531,vanino,49.0869,140.2543,17.15,95,100,1.08,RU,1721506782
532,pechora,65.1472,57.2244,9.51,63,2,3.53,RU,1721506783
533,palu,-0.8917,119.8707,24.55,97,94,1.15,ID,1721506785
534,makoua,0.0069,15.6333,27.89,49,100,1.13,CG,1721506786
535,san matias,-16.3667,-58.4,35.49,12,0,2.12,BO,1721506787
536,shingu,33.7333,135.9833,25.05,90,95,2.86,JP,1721506789
537,sinj,43.7036,16.6394,25.94,88,53,0.78,HR,1721506791
538,ugoofaaru,5.6667,73.0,28.33,78,100,5.5,MV,1721506793
539,nzega,-2.479,29.5564,17.91,61,100,1.91,RW,1721506794
540,cacule,-14.5033,-42.2222,23.46,51,88,3.06,BR,1721506795
541,vennesla,58.2694,7.9741,18.75,70,0,2.06,NO,1721506797
542,yerofey pavlovich,53.9667,121.9667,12.11,94,3,1.77,RU,1721506798
543,holdrege,40.4403,-99.3698,24.71,69,100,2.06,US,1721506799
544,hilo,19.7297,-155.09,27.92,76,75,4.12,US,1721506521
545,kulhudhuffushi,6.6221,73.07,28.52,78,94,6.2,MV,1721506802
546,ribeirao branco,-24.2208,-48.7656,16.66,64,0,1.91,BR,1721506803
547,weno,7.4515,151.8468,26.97,89,75,2.06,FM,1721506805
548,yamethin,20.4333,96.15,24.36,92,96,4.08,MM,1721506806
549,airway heights,47.6446,-117.5933,34.78,21,0,0.78,US,1721506577
550,ambovombe,-25.1667,46.0833,19.09,78,0,2.13,MG,1721506809
551,aykhal,66.0,111.5,15.74,77,100,3.82,RU,1721506810
552,leirvik,59.7798,5.5005,18.72,70,0,1.44,NO,1721506811
553,luling,29.9322,-90.3665,30.55,89,100,2.28,US,1721506813
554,belfast,54.5833,-5.9333,13.9,79,75,4.63,GB,1721506584
555,shijiazhuang,38.0414,114.4786,25.92,65,100,1.26,CN,1721506816
556,korhogo,9.45,-5.6333,23.68,87,100,2.44,CI,1721506817
557,sambava,-14.2667,50.1667,19.95,79,0,4.05,MG,1721506819
558,nueva villa de padilla,24.0167,-98.7833,37.36,44,38,3.71,MX,1721506820
559,bandrele,-12.9067,45.1914,23.86,73,0,3.09,YT,1721506821
560,nguigmi,14.2495,13.1092,29.86,54,97,5.26,NE,1721506823
561,lushun,38.8,121.2667,27.12,92,31,5.82,CN,1721506824
562,linqiong,30.4159,103.4609,24.9,97,100,0.17,CN,1721506825
563,nova xavantina,-14.6667,-52.35,31.79,19,5,1.97,BR,1721506827
564,tofol,5.3248,163.0078,28.36,77,63,6.5,FM,1721506828
565,ocara,-4.4908,-38.5967,28.03,43,5,1.55,BR,1721506829
566,okha,53.5739,142.9478,13.28,99,100,5.25,RU,1721506831
567,saint joseph,39.7686,-94.8466,23.45,75,100,2.06,US,1721506644
568,hotan,37.0997,79.9269,29.06,26,25,2.18,CN,1721506834
569,brookings,44.3114,-96.7984,26.73,63,40,4.12,US,1721506835
570,hinton,53.4001,-117.5857,31.3,27,2,1.72,CA,1721506836
571,wahpeton,46.2652,-96.6059,29.95,54,20,0.0,US,1721506838
572,jinchang,38.4953,102.1739,22.54,50,0,3.17,CN,1721506839
573,mahuta,-10.8667,39.45,15.83,88,98,1.41,TZ,1721506840
574,meadow lakes,61.6247,-149.6011,22.17,63,0,1.54,US,1721506842
